[{"name": "Aachen Hbf", "address": "Bahnhofstr.  2a, 52064 Aachen", "lat": 50.7678, "lon": 6.091499}, {"name": "Aschaffenburg Hbf", "address": "Ludwigstr. 2-4, 63739 Aschaffenburg", "lat": 49.980557, "lon": 9.143697}, {"name": "Augsburg Hbf", "address": "Viktoriastr. 1, 86150 Augsburg", "lat": 48.365441, "lon": 10.88557}, {"name": "Bad Oldesloe", "address": "K\u00e4the-Kollwitz-Str. 8, 23843 Bad Oldesloe", "lat": 53.8053902, "lon": 10.3825414}, {"name": "Bamberg", "address": "Ludwigstr. 6, 96052 Bamberg", "lat": 49.900759, "lon": 10.899489}, {"name": "Berlin-Friedrichstra\u00dfe", "address": "Friedrichstra\u00dfe 142, 10117 Berlin", "lat": 52.520373, "lon": 13.3872056}, {"name": "Berlin Gesundbrunnen", "address": "Badstr.1-3, 13357 Berlin", "lat": 52.548963, "lon": 13.388513}, {"name": "Berlin Ostbahnhof", "address": "Koppenstr. 3, 10243 Berlin", "lat": 52.5104881, "lon": 13.4346807}, {"name": "Berlin Zoologischer Garten", "address": "Hardenbergplatz 13, 10623 Berlin", "lat": 52.5073407, "lon": 13.3324447}, {"name": "Berlin-Lichtenberg", "address": "Weitlingstr. 22, 10317 Berlin", "lat": 52.5101355, "lon": 13.4966934}, {"name": "Berlin-Spandau", "address": "Seegefelder Str. 1, 13597 Berlin", "lat": 52.5346481, "lon": 13.1968975}, {"name": "Berlin-Wannsee", "address": "Kronprinzessinnenweg 250, 14109 Berlin", "lat": 52.4209723, "lon": 13.1795275}, {"name": "Bielefeld Hbf", "address": "Am Bahnhof 1b, 33602 Bielefeld", "lat": 52.029261, "lon": 8.532722}, {"name": "Bietigheim-Bissingen", "address": "Bahnhof  1, 74321 Bietigheim-Bissingen", "lat": 48.947933, "lon": 9.137557}, {"name": "Bochum Hbf", "address": "Kurt-Schumacher-Platz 13-15, 44787 Bochum", "lat": 51.478609, "lon": 7.223275}, {"name": "Bonn Hbf", "address": "Am Hauptbahnhof 1, 53111 Bonn", "lat": 50.732008, "lon": 7.097136}, {"name": "Braunschweig Hbf", "address": "Willy-Brandt-Platz 1, 38102 Braunschweig", "lat": 52.252218, "lon": 10.540295}, {"name": "Bremen Hbf", "address": "Bahnhofsplatz 15, 28195 Bremen", "lat": 53.083481, "lon": 8.813834}, {"name": "Bruchsal", "address": "Bahnhofplatz 12, 76646 Bruchsal", "lat": 49.124622, "lon": 8.589649}, {"name": "Chemnitz Hbf", "address": "Bahnhofstr. 1, 09111 Chemnitz ", "lat": 50.839696, "lon": 12.930877}, {"name": "Berlin Hauptbahnhof", "address": "Europaplatz 1, 10557 Berlin", "lat": 52.525592, "lon": 13.369545}, {"name": "Cottbus Hbf", "address": "Vetschauer Str. 70, 03048 Cottbus", "lat": 51.750957, "lon": 14.324162}, {"name": "Darmstadt Hbf", "address": "Am Hauptbahnhof 20, 64293 Darmstadt", "lat": 49.872503, "lon": 8.629636}, {"name": "Dortmund Hbf", "address": "K\u00f6nigswall 15, 44137 Dortmund", "lat": 51.517896, "lon": 7.45929}, {"name": "Dresden Hbf", "address": "Wiener Platz 4, 01069 Dresden", "lat": 51.040563, "lon": 13.732035}, {"name": "Dresden-Neustadt", "address": "Schlesischer Platz 1, 01097 Dresden", "lat": 51.065899, "lon": 13.740701}, {"name": "Duisburg Hbf", "address": "Portsmouthplatz 1, 47051 Duisburg", "lat": 51.429785, "lon": 6.775903}, {"name": "D\u00fcsseldorf Hbf", "address": "Konrad-Adenauer-Platz 14, 40210 D\u00fcsseldorf", "lat": 51.219962, "lon": 6.794319}, {"name": "Erfurt Hbf", "address": "Willy-Brandt-Platz 12, 99084 Erfurt", "lat": 50.9723561, "lon": 11.0379928}, {"name": "Essen Hbf", "address": "Am Hauptbahnhof 5, 45127 Essen", "lat": 51.451355, "lon": 7.014793}, {"name": "Frankfurt (Main) S\u00fcd", "address": "Hedderichstra\u00dfe 51, 60594 Frankfurt am Main", "lat": 50.099365, "lon": 8.686457}, {"name": "Frankfurt (Oder)", "address": "Bahnhofsplatz 11, 15230 Frankfurt (Oder)", "lat": 52.336416, "lon": 14.546496}, {"name": "Frankfurt (Main) Hbf", "address": "Im Hauptbahnhof, 60329 Frankfurt am Main", "lat": 50.1066819, "lon": 8.66282825}, {"name": "Freiburg (Breisgau) Hbf", "address": "Bismarckallee 5-7, 79098 Freiburg", "lat": 47.997697, "lon": 7.84117}, {"name": "Fulda", "address": "Am Bahnhof 3, 36037 Fulda", "lat": 50.5549058, "lon": 9.68416929}, {"name": "F\u00fcrth (Bay) Hbf", "address": "Bahnhofplatz 9, 90762 F\u00fcrth", "lat": 49.469707, "lon": 10.989988}, {"name": "Gelsenkirchen Hbf", "address": "Bahnhofsvorplatz 10, 45879 Gelsenkirchen", "lat": 51.504903, "lon": 7.102455}, {"name": "Gie\u00dfen", "address": "Bahnhofstr. 102, 35390 Gie\u00dfen", "lat": 50.579059, "lon": 8.661462}, {"name": "G\u00f6ttingen", "address": "Bahnhofsplatz 1, 37073 G\u00f6ttingen", "lat": 51.536815, "lon": 9.926072}, {"name": "Hagen Hbf", "address": "Berliner Platz 1, 58089 Hagen", "lat": 51.362747, "lon": 7.460249}, {"name": "Halle (Saale) Hbf", "address": "Hans-Dietrich-Genscher-Platz 1 , 06112 Halle ", "lat": 51.477509, "lon": 11.987085}, {"name": "Hamburg Dammtor", "address": "Dag-Hammarskj\u00f6ld-Platz 15, 20354 Hamburg", "lat": 53.560751, "lon": 9.989566}, {"name": "Hamburg Hbf", "address": "Hachmannplatz 16, 20099 Hamburg", "lat": 53.552736, "lon": 10.006909}, {"name": "Hamburg-Altona", "address": "Scheel-Plessen-Str. 17, 22765 Hamburg", "lat": 53.552695, "lon": 9.935175}, {"name": "Hamburg-Harburg", "address": "Hannoversche Str. 85, 21079 Hamburg", "lat": 53.455908, "lon": 9.991701}, {"name": "Hamm (Westf) Hbf", "address": "Willy-Brandt-Platz 1b, 59065 Hamm ", "lat": 51.678078, "lon": 7.807821}, {"name": "Hanau Hbf", "address": "Am Hauptbahnhof 14a, 63450 Hanau", "lat": 50.120953, "lon": 8.929}, {"name": "Hannover Hbf", "address": "Ernst-August-Platz 1, 30159 Hannover", "lat": 52.376761, "lon": 9.741021}, {"name": "Heidelberg Hbf", "address": "Willy-Brandt-Platz 5, 69115 Heidelberg", "lat": 49.403567, "lon": 8.675442}, {"name": "Herford", "address": "Bahnhofsplatz 3, 32052 Herford", "lat": 52.119609, "lon": 8.663643}, {"name": "Hildesheim Hbf", "address": "Bahnhofsplatz 1, 31134 Hildesheim", "lat": 52.160626, "lon": 9.953497}, {"name": "Ingolstadt Hbf", "address": "Bahnhofstr. 8, 85051 Ingolstadt", "lat": 48.744541, "lon": 11.437337}, {"name": "Kaiserslautern Hbf", "address": "Bahnhofstr. 1, 67655 Kaiserslautern", "lat": 49.4358593, "lon": 7.76862681}, {"name": "Karlsruhe Hbf", "address": "Bahnhofplatz 1a, 76137 Karlsruhe", "lat": 48.993515, "lon": 8.402181}, {"name": "Kassel Hbf", "address": "Rainer-Dierichs-Platz 1, 34117 Kassel", "lat": 51.31826, "lon": 9.489501}, {"name": "Kassel-Wilhelmsh\u00f6he", "address": "Willy-Brandt-Platz 1, 34131 Kassel", "lat": 51.3125585, "lon": 9.44711566}, {"name": "Kiel Hbf", "address": "Sophienblatt 25-27, 24114 Kiel", "lat": 54.314985, "lon": 10.131976}, {"name": "Koblenz Hbf", "address": "Bahnhofsplatz 2, 56068 Koblenz", "lat": 50.350929, "lon": 7.588345}, {"name": "K\u00f6ln Hbf", "address": "Trankgasse 11, 50667 K\u00f6ln", "lat": 50.94303, "lon": 6.958729}, {"name": "K\u00f6ln Messe/Deutz", "address": "Ottoplatz 7, 50679 K\u00f6ln", "lat": 50.940874, "lon": 6.975001}, {"name": "Landshut (Bay) Hbf", "address": "Bahnhofsplatz 1, 84032 Landshut ", "lat": 48.547492, "lon": 12.13593}, {"name": "Leipzig Hbf", "address": "Willy-Brandt-Platz 5, 04109 Leipzig", "lat": 51.3454712, "lon": 12.3820639}, {"name": "L\u00fcbeck Hbf", "address": "Am Bahnhof 6, 23558 L\u00fcbeck", "lat": 53.867547, "lon": 10.669821}, {"name": "Ludwigshafen (Rhein) Hbf", "address": "Pasadenaallee 1, 67059 Ludwigshafen", "lat": 49.476529, "lon": 8.433042}, {"name": "L\u00fcneburg", "address": "Bahnhofstr. 10, 21337 L\u00fcneburg", "lat": 53.249656, "lon": 10.41989}, {"name": "Magdeburg Hbf", "address": "Bahnhofstr. 69, 39104 Magdeburg", "lat": 52.1305112, "lon": 11.626963}, {"name": "Mainz Hbf", "address": "Bahnhofplatz 1, 55116 Mainz", "lat": 50.001117, "lon": 8.25872}, {"name": "Mannheim Hbf", "address": "Willy-Brandt-Platz 17, 68161 Mannheim", "lat": 49.479354, "lon": 8.468921}, {"name": "M\u00f6nchengladbach Hbf", "address": "Europaplatz 1, 41061 M\u00f6nchengladbach", "lat": 51.196583, "lon": 6.446111}, {"name": "M\u00fcnchen Hbf", "address": "Bayerstr. 10a, 80335 M\u00fcnchen", "lat": 48.140232, "lon": 11.558335}, {"name": "M\u00fcnchen Ost", "address": "Orleansplatz 11, 81667 M\u00fcnchen", "lat": 48.12744, "lon": 11.604971}, {"name": "M\u00fcnchen-Pasing", "address": "Pasinger Bahnhofsplatz 7-9 6-10, 81241 M\u00fcnchen", "lat": 48.149852, "lon": 11.461872}, {"name": "M\u00fcnster (Westf) Hbf", "address": "Berliner Platz 25, 48143 M\u00fcnster", "lat": 51.956566, "lon": 7.635715}, {"name": "Neum\u00fcnster", "address": "Konrad-Adenauer-Platz 2, 24534 Neum\u00fcnster", "lat": 54.075752, "lon": 9.979816}, {"name": "Neuss Hbf", "address": "Further Str. 1, 41462 Neuss", "lat": 51.204351, "lon": 6.684527}, {"name": "Neustadt (Weinstr) Hbf", "address": "Bahnhofsplatz 6, 67434 Neustadt ", "lat": 49.349553, "lon": 8.140757}, {"name": "N\u00fcrnberg Hbf", "address": "Bahnhofsplatz 9, 90443 N\u00fcrnberg", "lat": 49.445616, "lon": 11.082989}, {"name": "Oberhausen Hbf", "address": "Willy-Brandt-Platz 1, 46045 Oberhausen", "lat": 51.474878, "lon": 6.851588}, {"name": "Offenburg", "address": "Hauptstr. 1, 77652 Offenburg", "lat": 48.476475, "lon": 7.946723}, {"name": "Oldenburg (Oldb) Hbf", "address": "Bahnhofsplatz 12d, 26122 Oldenburg (Oldb)", "lat": 53.144323, "lon": 8.222713}, {"name": "Osnabr\u00fcck Hbf", "address": "Theodor-Heuss-Platz 2, 49074 Osnabr\u00fcck", "lat": 52.272851, "lon": 8.061781}, {"name": "Berlin Ostkreuz", "address": "Sonntagstr.37, 10245 Berlin", "lat": 52.503037, "lon": 13.469105}, {"name": "Paderborn Hbf", "address": "Bahnhofstr. 29, 33102 Paderborn", "lat": 51.712979, "lon": 8.740505}, {"name": "Berlin S\u00fcdkreuz", "address": "General-Pape-Stra\u00dfe 1, 12101 Berlin", "lat": 52.475047, "lon": 13.365319}, {"name": "Pforzheim Hbf", "address": "Bahnhofplatz 1, 75175 Pforzheim", "lat": 48.894152, "lon": 8.703099}, {"name": "Plochingen", "address": "Am Bahnhof 1, 73207 Plochingen", "lat": 48.71308, "lon": 9.41081}, {"name": "Potsdam Hbf", "address": "Friedrich-Engels-Str. 99, 14473 Potsdam", "lat": 52.391509, "lon": 13.0667031}, {"name": "Berlin Potsdamer Platz", "address": "Potsdamer Platz, 10785 Berlin", "lat": 52.509379, "lon": 13.375988}, {"name": "Regensburg Hbf", "address": "Bahnhofstr. 18, 93047 Regensburg", "lat": 49.011672, "lon": 12.099617}, {"name": "Rheine", "address": "Am Hauptbahnhofe 2, 48431 Rheine", "lat": 52.276299, "lon": 7.434255}, {"name": "Rosenheim", "address": "S\u00fcdtiroler Platz 1, 83022 Rosenheim", "lat": 47.850018, "lon": 12.119202}, {"name": "Rostock Hbf", "address": "Konrad-Adenauer-Platz 1, 18055 Rostock", "lat": 54.078246, "lon": 12.131079}, {"name": "Saarbr\u00fccken Hbf", "address": "Am Hauptbahnhof 6-12, 66111 Saarbr\u00fccken", "lat": 49.241065, "lon": 6.991021}, {"name": "Singen (Hohentwiel)", "address": "Bahnhofstr. 2, 78224 Singen ", "lat": 47.7588801, "lon": 8.84126902}, {"name": "Solingen Hbf", "address": "Bahnstr. 5, 42697 Solingen-Ohligs", "lat": 51.160766, "lon": 7.004187}, {"name": "Stuttgart Hbf", "address": "Arnulf-Klett-Platz 2, 70173 Stuttgart", "lat": 48.784084, "lon": 9.181635}, {"name": "Trier Hbf", "address": "Bahnhofsplatz 1, 54292 Trier", "lat": 49.756846, "lon": 6.652453}, {"name": "T\u00fcbingen Hbf", "address": "Europaplatz 17, 72072 T\u00fcbingen", "lat": 48.5156414, "lon": 9.05539513}, {"name": "Uelzen", "address": "Friedensreich-Hundertwasser-Platz 1, 29525 Uelzen", "lat": 52.969781, "lon": 10.553053}, {"name": "Ulm Hbf", "address": "Bahnhofplatz 1, 89073 Ulm", "lat": 48.3993985, "lon": 9.98260796}, {"name": "Weimar", "address": "Schopenhauerstr. 2, 99423 Weimar", "lat": 50.991487, "lon": 11.326458}, {"name": "Wiesbaden Hbf", "address": "Bahnhofsplatz 1, 65189 Wiesbaden", "lat": 50.070791, "lon": 8.243731}, {"name": "Wolfsburg Hbf", "address": "Willy-Brandt-Platz 3, 38440 Wolfsburg", "lat": 52.429498, "lon": 10.787784}, {"name": "Worms Hbf", "address": "Bahnhofstr. 7/11, 67547 Worms", "lat": 49.63494, "lon": 8.356448}, {"name": "Wuppertal Hbf", "address": "D\u00f6ppersberg 37, 42103 Wuppertal", "lat": 51.254363, "lon": 7.149543}, {"name": "W\u00fcrzburg Hbf", "address": "Bahnhofplatz 4, 97070 W\u00fcrzburg", "lat": 49.801796, "lon": 9.93578}, {"name": "Flughafen BER", "address": "Melli-Beese-Ring , 12529 Sch\u00f6nefeld", "lat": 52.3648038, "lon": 13.5119498}]