[
  {
    "name": "Aachen Hbf",
    "address": "Bahnhofstr.  2a, 52064 Aachen",
    "lat": 50.7678,
    "lon": 6.091499
  },
  {
    "name": "Aalen Hbf",
    "address": "Am Bahnhof 1, 73430 Aalen",
    "lat": 48.841013,
    "lon": 10.096271
  },
  {
    "name": "Alexanderplatz",
    "address": "Dircksenstr. 2, 10179 Berlin",
    "lat": 52.521481,
    "lon": 13.410961
  },
  {
    "name": "Altbach",
    "address": "Bahnhofstrasse 1, 73776 Altbach",
    "lat": 48.720393,
    "lon": 9.382384
  },
  {
    "name": "Altenbeken",
    "address": "Bahnhofstr. 13, 33184 Altenbeken",
    "lat": 51.766433,
    "lon": 8.943319
  },
  {
    "name": "Alzey",
    "address": "Bahnhofstr. 30, 55232 Alzey",
    "lat": 49.7502,
    "lon": 8.109749
  },
  {
    "name": "Andernach",
    "address": "Kurf\u00fcrstendamm 1, 56626 Andernach",
    "lat": 50.434542,
    "lon": 7.404839
  },
  {
    "name": "Angerm\u00fcnde",
    "address": "Bahnhofsplatz 1c, 16278 Angerm\u00fcnde",
    "lat": 53.015221,
    "lon": 13.996361
  },
  {
    "name": "Ansbach",
    "address": "Bahnhofplatz 2, 91522 Ansbach",
    "lat": 49.298032,
    "lon": 10.578239
  },
  {
    "name": "Aschaffenburg Hbf",
    "address": "Ludwigstr. 2-4, 63739 Aschaffenburg",
    "lat": 49.980557,
    "lon": 9.143697
  },
  {
    "name": "Au (Sieg)",
    "address": "Bahnhofstr. 24, 51570 Windeck",
    "lat": 50.773765,
    "lon": 7.656537
  },
  {
    "name": "Augsburg Haunstetterstra\u00dfe",
    "address": "Haunstetter Str. 30, 86161 Augsburg",
    "lat": 48.355285,
    "lon": 10.900985
  },
  {
    "name": "Augsburg Hbf",
    "address": "Viktoriastr. 1, 86150 Augsburg",
    "lat": 48.365441,
    "lon": 10.88557
  },
  {
    "name": "Augsburg-Hochzoll",
    "address": "Hochzollerstr. 19, 86163 Augsburg",
    "lat": 48.352977,
    "lon": 10.943376
  },
  {
    "name": "Backnang",
    "address": "Obere Bahnhofstr. 1, 71522 Backnang",
    "lat": 48.942676,
    "lon": 9.425989
  },
  {
    "name": "Bad Friedrichshall Hbf",
    "address": "Jagstfelder Str. 99, 74177 Bad Friedrichshall",
    "lat": 49.231571,
    "lon": 9.199771
  },
  {
    "name": "Bad Hersfeld",
    "address": "Bahnhofstr. 16, 36251 Bad Hersfeld",
    "lat": 50.8697662,
    "lon": 9.71658111
  },
  {
    "name": "Bad Homburg",
    "address": "Bahnhofsplatz 4, 61352 Bad Homburg",
    "lat": 50.219904,
    "lon": 8.620624
  },
  {
    "name": "Bad Kreuznach",
    "address": "Europaplatz 25, 55543 Bad Kreuznach",
    "lat": 49.842399,
    "lon": 7.866435
  },
  {
    "name": "Bad Oeynhausen",
    "address": "Herforder Str. 82, 32545 Bad Oeynhausen",
    "lat": 52.205398,
    "lon": 8.796523
  },
  {
    "name": "Bad Oldesloe",
    "address": "K\u00e4the-Kollwitz-Str. 8, 23843 Bad Oldesloe",
    "lat": 53.8053902,
    "lon": 10.3825414
  },
  {
    "name": "Bad Schandau",
    "address": "Am Bahnhof 5, 01814 Bad Schandau",
    "lat": 50.9192886,
    "lon": 14.1375375
  },
  {
    "name": "Bad Vilbel",
    "address": "Bahnhofsplatz 1, 61118 Bad Vilbel",
    "lat": 50.1885876,
    "lon": 8.73955965
  },
  {
    "name": "Baden-Baden",
    "address": "Ooser-Bahnhofstr. 4, 76532 Baden-Baden",
    "lat": 48.790327,
    "lon": 8.190831
  },
  {
    "name": "Bamberg",
    "address": "Ludwigstr. 6, 96052 Bamberg",
    "lat": 49.900759,
    "lon": 10.899489
  },
  {
    "name": "Bayreuth Hbf",
    "address": "Bahnhofstr. 20, 95444 Bayreuth",
    "lat": 49.949616,
    "lon": 11.579985
  },
  {
    "name": "Bebra",
    "address": "Bahnhofstra\u00dfe 10, 36179 Bebra",
    "lat": 50.969568,
    "lon": 9.797788
  },
  {
    "name": "Bergen auf R\u00fcgen",
    "address": "Bahnhofstr. 34, 18528 Bergen (R\u00fcgen)",
    "lat": 54.4205,
    "lon": 13.417821
  },
  {
    "name": "Berlin Anhalter Bahnhof",
    "address": "Stresemannstra\u00dfe, 10963 Berlin",
    "lat": 52.503486,
    "lon": 13.381362
  },
  {
    "name": "Berlin Frankfurter Allee",
    "address": "Frankfurter Allee 111 A, 10247 Berlin",
    "lat": 52.515168,
    "lon": 13.47441
  },
  {
    "name": "Berlin-Friedrichstra\u00dfe",
    "address": "Friedrichstra\u00dfe 142, 10117 Berlin",
    "lat": 52.520373,
    "lon": 13.3872056
  },
  {
    "name": "Berlin Gesundbrunnen",
    "address": "Badstr.1-3, 13357 Berlin",
    "lat": 52.548963,
    "lon": 13.388513
  },
  {
    "name": "Berlin Ostbahnhof",
    "address": "Koppenstr. 3, 10243 Berlin",
    "lat": 52.5104881,
    "lon": 13.4346807
  },
  {
    "name": "Berlin Zoologischer Garten",
    "address": "Hardenbergplatz 13, 10623 Berlin",
    "lat": 52.5073407,
    "lon": 13.3324447
  },
  {
    "name": "Berlin-Charlottenburg",
    "address": "Stuttgarter Platz 36, 10627 Berlin",
    "lat": 52.5042126,
    "lon": 13.3023298
  },
  {
    "name": "Berlin-Hohensch\u00f6nhausen",
    "address": "Falkenberger Chaussee 82, 13051 Berlin",
    "lat": 52.5660016,
    "lon": 13.5124218
  },
  {
    "name": "Berlin-Lichtenberg",
    "address": "Weitlingstr. 22, 10317 Berlin",
    "lat": 52.5101355,
    "lon": 13.4966934
  },
  {
    "name": "Berlin-Mahlsdorf",
    "address": "H\u00f6nower Str. 83-85, 12623 Berlin",
    "lat": 52.512107,
    "lon": 13.611417
  },
  {
    "name": "Berlin-Neuk\u00f6lln",
    "address": "Karl-Marx-Stra\u00dfe 229, 12055 Berlin",
    "lat": 52.46942,
    "lon": 13.44306
  },
  {
    "name": "Berlin-Sch\u00f6neweide Pbf",
    "address": "Cajamarcaplatz 1, 12439 Berlin",
    "lat": 52.455127,
    "lon": 13.509395
  },
  {
    "name": "Berlin-Spandau",
    "address": "Seegefelder Str. 1, 13597 Berlin",
    "lat": 52.5346481,
    "lon": 13.1968975
  },
  {
    "name": "Berlin-Wannsee",
    "address": "Kronprinzessinnenweg 250, 14109 Berlin",
    "lat": 52.4209723,
    "lon": 13.1795275
  },
  {
    "name": "Berliner Tor",
    "address": "Berlinertordamm 10, 20099 Hamburg",
    "lat": 53.55287,
    "lon": 10.02463
  },
  {
    "name": "Bernau (b Berlin)",
    "address": "Bahnhofsplatz 1, 16321 Bernau bei Berlin",
    "lat": 52.6755689,
    "lon": 13.5926414
  },
  {
    "name": "Betzdorf (Sieg)",
    "address": "Bahnhofstr. 1, 57518 Betzdorf ",
    "lat": 50.789294,
    "lon": 7.87005
  },
  {
    "name": "Bielefeld Hbf",
    "address": "Am Bahnhof 1b, 33602 Bielefeld",
    "lat": 52.029261,
    "lon": 8.532722
  },
  {
    "name": "Bietigheim-Bissingen",
    "address": "Bahnhof  1, 74321 Bietigheim-Bissingen",
    "lat": 48.947933,
    "lon": 9.137557
  },
  {
    "name": "Ostseebad Binz",
    "address": "Dollahnerstr. 17, 18609 Binz",
    "lat": 54.404819,
    "lon": 13.600507
  },
  {
    "name": "Bitterfeld",
    "address": "Bahnhofstr. 31, 06749 Bitterfeld-Wolfen",
    "lat": 51.622861,
    "lon": 12.31685
  },
  {
    "name": "Blankenese",
    "address": "Blankeneser Bahnhofsplatz 29, 22587 Hamburg",
    "lat": 53.564364,
    "lon": 9.814607
  },
  {
    "name": "B\u00f6blingen",
    "address": "Bahnhof 1/ Bahnhof 2, 71034 B\u00f6blingen",
    "lat": 48.687758,
    "lon": 9.004128
  },
  {
    "name": "Bochum Hbf",
    "address": "Kurt-Schumacher-Platz 13-15, 44787 Bochum",
    "lat": 51.478609,
    "lon": 7.223275
  },
  {
    "name": "Bonn Hbf",
    "address": "Am Hauptbahnhof 1, 53111 Bonn",
    "lat": 50.732008,
    "lon": 7.097136
  },
  {
    "name": "Bonn-Bad Godesberg",
    "address": "Moltkestr. 43, 53173 Bonn",
    "lat": 50.683927,
    "lon": 7.159555
  },
  {
    "name": "Bornholmer Stra\u00dfe",
    "address": "Bornholmerstrasse /B\u00f6sebr\u00fccke, 13187 Berlin",
    "lat": 52.554491,
    "lon": 13.397943
  },
  {
    "name": "Brandenburg Hbf",
    "address": "Am Hauptbahnhof 9, 14776 Brandenburg an der Havel",
    "lat": 52.400554,
    "lon": 12.566138
  },
  {
    "name": "Braunschweig Hbf",
    "address": "Willy-Brandt-Platz 1, 38102 Braunschweig",
    "lat": 52.252218,
    "lon": 10.540295
  },
  {
    "name": "Bremen Hbf",
    "address": "Bahnhofsplatz 15, 28195 Bremen",
    "lat": 53.083481,
    "lon": 8.813834
  },
  {
    "name": "Bremerhaven Hbf",
    "address": "Friedrich-Ebert-Str. 73, 27570 Bremerhaven",
    "lat": 53.534912,
    "lon": 8.599555
  },
  {
    "name": "Bruchsal",
    "address": "Bahnhofplatz 12, 76646 Bruchsal",
    "lat": 49.124622,
    "lon": 8.589649
  },
  {
    "name": "B\u00fcchen",
    "address": "Lauenburger Str., 21514 B\u00fcchen",
    "lat": 53.474972,
    "lon": 10.623298
  },
  {
    "name": "Buchholz (Nordheide)",
    "address": "Bahnhofstr. 1, 21244 Buchholz i.d.Nordheide",
    "lat": 53.324683,
    "lon": 9.876266
  },
  {
    "name": "Buchloe",
    "address": "Bahnhofstr. 62, 86807 Buchloe",
    "lat": 48.033723,
    "lon": 10.716217
  },
  {
    "name": "Bullay DB",
    "address": "Bahnhofsplatz 1, 56859 Bullay",
    "lat": 50.05446,
    "lon": 7.134584
  },
  {
    "name": "B\u00fcnde (Westf)",
    "address": "Bahnhofstr. 82, 32257 B\u00fcnde ",
    "lat": 52.202075,
    "lon": 8.573876
  },
  {
    "name": "Buxtehude",
    "address": "Am Bundesbahnhof 1, 21614 Buxtehude",
    "lat": 53.470491,
    "lon": 9.688314
  },
  {
    "name": "Castrop-Rauxel Hbf",
    "address": "Berliner Platz 9, 44579 Castrop-Rauxel",
    "lat": 51.573526,
    "lon": 7.30398
  },
  {
    "name": "Celle Pbf",
    "address": "Bahnhofsplatz 6, 29221 Celle",
    "lat": 52.6204548,
    "lon": 10.062468
  },
  {
    "name": "Chemnitz Hbf",
    "address": "Bahnhofstr. 1, 09111 Chemnitz ",
    "lat": 50.839696,
    "lon": 12.930877
  },
  {
    "name": "Coburg",
    "address": "Lossaustr. 6, 96450 Coburg",
    "lat": 50.2629273,
    "lon": 10.9573281
  },
  {
    "name": "Berlin Hauptbahnhof",
    "address": "Europaplatz 1, 10557 Berlin",
    "lat": 52.525592,
    "lon": 13.369545
  },
  {
    "name": "Cottbus Hbf",
    "address": "Vetschauer Str. 70, 03048 Cottbus",
    "lat": 51.750957,
    "lon": 14.324162
  },
  {
    "name": "Crailsheim",
    "address": " Bahnhof 1, 74564 Crailsheim",
    "lat": 49.137872,
    "lon": 10.064326
  },
  {
    "name": "Dachau Bahnhof",
    "address": "Bahnhofplatz 1, 85221 Dachau",
    "lat": 48.254652,
    "lon": 11.44426
  },
  {
    "name": "Darmstadt Hbf",
    "address": "Am Hauptbahnhof 20, 64293 Darmstadt",
    "lat": 49.872503,
    "lon": 8.629636
  },
  {
    "name": "Delmenhorst",
    "address": "Wittekindstr. 10, 27749 Delmenhorst",
    "lat": 53.052792,
    "lon": 8.629758
  },
  {
    "name": "Dessau Hbf",
    "address": "Fritz-Hesse-Str. 47, 06844 Dessau-Ro\u00dflau",
    "lat": 51.839865,
    "lon": 12.234945
  },
  {
    "name": "Dortmund Hbf",
    "address": "K\u00f6nigswall 15, 44137 Dortmund",
    "lat": 51.517896,
    "lon": 7.45929
  },
  {
    "name": "Dortmund-Dorstfeld",
    "address": "Wittener Str., 44149 Dortmund",
    "lat": 51.509376,
    "lon": 7.424864
  },
  {
    "name": "Dresden Hbf",
    "address": "Wiener Platz 4, 01069 Dresden",
    "lat": 51.040563,
    "lon": 13.732035
  },
  {
    "name": "Dresden-Neustadt",
    "address": "Schlesischer Platz 1, 01097 Dresden",
    "lat": 51.065899,
    "lon": 13.740701
  },
  {
    "name": "Duisburg Hbf",
    "address": "Portsmouthplatz 1, 47051 Duisburg",
    "lat": 51.429785,
    "lon": 6.775903
  },
  {
    "name": "D\u00fcren",
    "address": "Hauptbahnhof 1, 52351 D\u00fcren",
    "lat": 50.809517,
    "lon": 6.482451
  },
  {
    "name": "D\u00fcsseldorf-Benrath",
    "address": "Heubesstr. 23, 40597 D\u00fcsseldorf",
    "lat": 51.162293,
    "lon": 6.878931
  },
  {
    "name": "D\u00fcsseldorf Flughafen",
    "address": "Ahrensplatz 1, 40474 D\u00fcsseldorf",
    "lat": 51.292009,
    "lon": 6.786836
  },
  {
    "name": "D\u00fcsseldorf Hbf",
    "address": "Konrad-Adenauer-Platz 14, 40210 D\u00fcsseldorf",
    "lat": 51.219962,
    "lon": 6.794319
  },
  {
    "name": "D\u00fcsseldorf-Derendorf",
    "address": "M\u00fcnsterstr. 199, 40470 D\u00fcsseldorf",
    "lat": 51.247624,
    "lon": 6.794512
  },
  {
    "name": "Eberbach",
    "address": "Bahnhofplatz 1, 69412 Eberbach",
    "lat": 49.465768,
    "lon": 8.984152
  },
  {
    "name": "Eberswalde Hbf",
    "address": "Bahnhofsring 17, 16225 Eberswalde",
    "lat": 52.834021,
    "lon": 13.797062
  },
  {
    "name": "Eidelstedt",
    "address": "Reichsbahnstr. 101, 22525 Hamburg",
    "lat": 53.595887,
    "lon": 9.907097
  },
  {
    "name": "Eisenach Hbf",
    "address": "Bahnhofstr. 35, 99817 Eisenach",
    "lat": 50.976922,
    "lon": 10.331986
  },
  {
    "name": "Elmshorn",
    "address": "Holstenplatz 11, 25335 Elmshorn",
    "lat": 53.754025,
    "lon": 9.659408
  },
  {
    "name": "Emden Hbf",
    "address": "Bahnhofsplatz 11, 26721 Emden",
    "lat": 53.369036,
    "lon": 7.195176
  },
  {
    "name": "Erfurt Hbf",
    "address": "Willy-Brandt-Platz 12, 99084 Erfurt",
    "lat": 50.9723561,
    "lon": 11.0379928
  },
  {
    "name": "Erkner",
    "address": "Bahnhofstr., 15537 Erkner",
    "lat": 52.4275606,
    "lon": 13.7522435
  },
  {
    "name": "Erlangen",
    "address": "Bahnhofsplatz 1, 91054 Erlangen",
    "lat": 49.5958303,
    "lon": 11.0016382
  },
  {
    "name": "Essen Hbf",
    "address": "Am Hauptbahnhof 5, 45127 Essen",
    "lat": 51.451355,
    "lon": 7.014793
  },
  {
    "name": "Esslingen (Neckar)",
    "address": "Bahnhofsplatz 1, 73728 Esslingen am Neckar",
    "lat": 48.7385453,
    "lon": 9.30052221
  },
  {
    "name": "Esslingen-Mettingen",
    "address": "Cannstatterstra\u00dfe 61, 73733 Esslingen am Neckar",
    "lat": 48.747083,
    "lon": 9.27583
  },
  {
    "name": "Esslingen-Zell",
    "address": "Hauptstr. 100, 73730 Esslingen am Neckar",
    "lat": 48.724328,
    "lon": 9.359389
  },
  {
    "name": "Euskirchen",
    "address": "Oststr. 2a, 53879 Euskirchen",
    "lat": 50.65776,
    "lon": 6.792193
  },
  {
    "name": "Falkenberg (Elster)",
    "address": "Bahnhofstr. 1, 04895 Falkenberg (Elster)",
    "lat": 51.58362,
    "lon": 13.247685
  },
  {
    "name": "Fellbach",
    "address": "Eisenbahnstr. 14, 70736 Fellbach",
    "lat": 48.8202977,
    "lon": 9.27059948
  },
  {
    "name": "Feucht",
    "address": "Bahnhofstr. 32, 90537 Feucht",
    "lat": 49.381947,
    "lon": 11.204207
  },
  {
    "name": "Finnentrop",
    "address": "Bamenohler Stra\u00dfe 247, 57413 Finnentrop",
    "lat": 51.173048,
    "lon": 7.964563
  },
  {
    "name": "Flensburg",
    "address": "Am Bundesbahnhof 5, 24937 Flensburg",
    "lat": 54.774039,
    "lon": 9.436526
  },
  {
    "name": "Sch\u00f6nefeld (bei Berlin)",
    "address": "Mittelstr. 20, 12527 Sch\u00f6nefeld",
    "lat": 52.391062,
    "lon": 13.51271
  },
  {
    "name": "Frankenthal Hbf",
    "address": "Eisenbahnstr. 3, 67227 Frankenthal",
    "lat": 49.535567,
    "lon": 8.349702
  },
  {
    "name": "Frankfurt (Main) Flughafen Regionalbahnhof",
    "address": "Hugo-Eckener-Ring 1, 60549 Frankfurt am Main",
    "lat": 50.051219,
    "lon": 8.571251
  },
  {
    "name": "Frankfurt (Main) Ostendstra\u00dfe",
    "address": "Uhlandstra\u00dfe 57, 60314 Frankfurt am Main",
    "lat": 50.112562,
    "lon": 8.696987
  },
  {
    "name": "Frankfurt (Main) Stadion",
    "address": "Flughafenstr. 104, 60528 Frankfurt am Main",
    "lat": 50.068228,
    "lon": 8.633247
  },
  {
    "name": "Frankfurt (Main) S\u00fcd",
    "address": "Hedderichstra\u00dfe 51, 60594 Frankfurt am Main",
    "lat": 50.099365,
    "lon": 8.686457
  },
  {
    "name": "Frankfurt (Main) Taunusanlage",
    "address": "Taunusanlage 33, 60325 Frankfurt am Main",
    "lat": 50.113565,
    "lon": 8.668864
  },
  {
    "name": "Frankfurt (Main) West",
    "address": "Kasseler Str. 7, 60486 Frankfurt am Main",
    "lat": 50.1192986,
    "lon": 8.63939524
  },
  {
    "name": "Frankfurt (Oder)",
    "address": "Bahnhofsplatz 11, 15230 Frankfurt (Oder)",
    "lat": 52.336416,
    "lon": 14.546496
  },
  {
    "name": "Frankfurt (Main) Hauptwache",
    "address": "An der Hauptwache 17, 60313 Frankfurt am Main",
    "lat": 50.113926,
    "lon": 8.678947
  },
  {
    "name": "Frankfurt (Main) Konstablerwache",
    "address": "Konstablerwache, 60313 Frankfurt am Main",
    "lat": 50.114623,
    "lon": 8.687098
  },
  {
    "name": "Frankfurt (Main) Hbf",
    "address": "Im Hauptbahnhof, 60329 Frankfurt am Main",
    "lat": 50.1066819,
    "lon": 8.66282825
  },
  {
    "name": "Frankfurt-H\u00f6chst",
    "address": "Dalbergstr. 2, 65929 Frankfurt am Main",
    "lat": 50.102634,
    "lon": 8.54237
  },
  {
    "name": "Frankfurt (Main) Niederrad",
    "address": "Adolf-Mierschstr.43, 60528 Frankfurt am Main",
    "lat": 50.0809969,
    "lon": 8.63701344
  },
  {
    "name": "Frankfurt-R\u00f6delheim",
    "address": "Baruch-Baschwitz-Platz 33, 60489 Frankfurt am Main",
    "lat": 50.124615,
    "lon": 8.607026
  },
  {
    "name": "Freiburg (Breisgau) Hbf",
    "address": "Bismarckallee 5-7, 79098 Freiburg",
    "lat": 47.997697,
    "lon": 7.84117
  },
  {
    "name": "Freilassing",
    "address": "Bahnhofstr. 4, 83395 Freilassing",
    "lat": 47.836916,
    "lon": 12.977193
  },
  {
    "name": "Freising",
    "address": "Bahnhofsplatz 4, 85354 Freising",
    "lat": 48.395195,
    "lon": 11.744539
  },
  {
    "name": "Friedberg (Hess)",
    "address": "Hanauer Str. 44, 61169 Friedberg (Hessen)",
    "lat": 50.332606,
    "lon": 8.762056
  },
  {
    "name": "Friedrichshafen Stadt",
    "address": "Stadtbahnhof 1, 88045 Friedrichshafen",
    "lat": 47.653224,
    "lon": 9.4739
  },
  {
    "name": "Fr\u00f6ndenberg",
    "address": "Bahnhofstr. 15, 58730 Fr\u00f6ndenberg (Ruhr)",
    "lat": 51.471254,
    "lon": 7.762198
  },
  {
    "name": "Fulda",
    "address": "Am Bahnhof 3, 36037 Fulda",
    "lat": 50.5549058,
    "lon": 9.68416929
  },
  {
    "name": "F\u00fcrth (Bay) Hbf",
    "address": "Bahnhofplatz 9, 90762 F\u00fcrth",
    "lat": 49.469707,
    "lon": 10.989988
  },
  {
    "name": "Garmisch-Partenkirchen",
    "address": "Bahnhofstr. 31, 82467 Garmisch-Partenkirchen",
    "lat": 47.491452,
    "lon": 11.097013
  },
  {
    "name": "Gelsenkirchen Hbf",
    "address": "Bahnhofsvorplatz 10, 45879 Gelsenkirchen",
    "lat": 51.504903,
    "lon": 7.102455
  },
  {
    "name": "Geltendorf",
    "address": "Am Bahnhof 6, 82269 Geltendorf",
    "lat": 48.1059912,
    "lon": 11.0374552
  },
  {
    "name": "Gera Hbf",
    "address": "Bahnhofstra\u00dfe 3-9, 07545 Gera",
    "lat": 50.883421,
    "lon": 12.077092
  },
  {
    "name": "Germering-Unterpfaffenhofen",
    "address": "Bahnhofsplatz 1, 82110 Germering",
    "lat": 48.12887,
    "lon": 11.364023
  },
  {
    "name": "Gie\u00dfen",
    "address": "Bahnhofstr. 102, 35390 Gie\u00dfen",
    "lat": 50.579059,
    "lon": 8.661462
  },
  {
    "name": "Glauchau (Sachs)",
    "address": "Rosa-Luxemburg-Str. 3, 08371 Glauchau ",
    "lat": 50.828524,
    "lon": 12.548646
  },
  {
    "name": "G\u00f6ppingen",
    "address": "Am Bahnhof 1, 73033 G\u00f6ppingen",
    "lat": 48.700027,
    "lon": 9.651969
  },
  {
    "name": "G\u00f6rlitz",
    "address": "Bahnhofstr. 76, 02826 G\u00f6rlitz",
    "lat": 51.146767,
    "lon": 14.97908
  },
  {
    "name": "Jena-G\u00f6schwitz",
    "address": "Am Bahnhof 2, 07745 Jena",
    "lat": 50.883942,
    "lon": 11.593537
  },
  {
    "name": "Goslar",
    "address": "Hildesheimer Str. 53, 38640 Goslar",
    "lat": 51.911573,
    "lon": 10.421436
  },
  {
    "name": "Gotha",
    "address": "Bahnhofstr. 13, 99867 Gotha",
    "lat": 50.93907,
    "lon": 10.712568
  },
  {
    "name": "G\u00f6ttingen",
    "address": "Bahnhofsplatz 1, 37073 G\u00f6ttingen",
    "lat": 51.536815,
    "lon": 9.926072
  },
  {
    "name": "Graben-Neudorf",
    "address": "Bahnhofstra\u00dfe 43, 76676 Graben-Neudorf",
    "lat": 49.161797,
    "lon": 8.49063
  },
  {
    "name": "Grafing Bahnhof",
    "address": "Hauptstr. 31, 85567 Grafing",
    "lat": 48.043226,
    "lon": 11.940423
  },
  {
    "name": "Greven",
    "address": "Biederlackstr. 6, 48268 Greven",
    "lat": 52.0899457,
    "lon": 7.5993526
  },
  {
    "name": "Gro\u00df Gerau-Dornberg",
    "address": "Darmst\u00e4dter Str. 94, 64521 Gro\u00df Gerau-Dornberg",
    "lat": 49.912279,
    "lon": 8.494709
  },
  {
    "name": "G\u00fcnzburg",
    "address": "Bahnhofplatz 5, 89312 G\u00fcnzburg",
    "lat": 48.4605626,
    "lon": 10.2792621
  },
  {
    "name": "G\u00fcstrow",
    "address": "Bahnhofsplatz 3, 18273 G\u00fcstrow",
    "lat": 53.800597,
    "lon": 12.172836
  },
  {
    "name": "G\u00fctersloh Hbf",
    "address": "Willy-Brandt-Platz 2, 33330 G\u00fctersloh",
    "lat": 51.906941,
    "lon": 8.385071
  },
  {
    "name": "Hagen Hbf",
    "address": "Berliner Platz 1, 58089 Hagen",
    "lat": 51.362747,
    "lon": 7.460249
  },
  {
    "name": "Halberstadt Hbf",
    "address": "Bahnhofstr. 13, 38820 Halberstadt",
    "lat": 51.899309,
    "lon": 11.073452
  },
  {
    "name": "Halle (Saale) Hbf",
    "address": "Hans-Dietrich-Genscher-Platz 1 , 06112 Halle ",
    "lat": 51.477509,
    "lon": 11.987085
  },
  {
    "name": "Hamburg Dammtor",
    "address": "Dag-Hammarskj\u00f6ld-Platz 15, 20354 Hamburg",
    "lat": 53.560751,
    "lon": 9.989566
  },
  {
    "name": "Hamburg Hbf",
    "address": "Hachmannplatz 16, 20099 Hamburg",
    "lat": 53.552736,
    "lon": 10.006909
  },
  {
    "name": "Sternschanze",
    "address": "Sternschanze 1, 20357 Hamburg",
    "lat": 53.563719,
    "lon": 9.967204
  },
  {
    "name": "Hamburg-Altona",
    "address": "Scheel-Plessen-Str. 17, 22765 Hamburg",
    "lat": 53.552695,
    "lon": 9.935175
  },
  {
    "name": "Hamburg-Bergedorf",
    "address": "Weidenbaumsweg 14, 21029 Hamburg",
    "lat": 53.489832,
    "lon": 10.206171
  },
  {
    "name": "Hamburg-Harburg",
    "address": "Hannoversche Str. 85, 21079 Hamburg",
    "lat": 53.455908,
    "lon": 9.991701
  },
  {
    "name": "Hamburg-Neugraben",
    "address": "Am Neugrabener Bahnhof  1, 21149 Hamburg",
    "lat": 53.474143,
    "lon": 9.852048
  },
  {
    "name": "Hameln",
    "address": "Bahnhofsplatz 21, 31785 Hameln",
    "lat": 52.10185,
    "lon": 9.375906
  },
  {
    "name": "Hamm (Westf) Hbf",
    "address": "Willy-Brandt-Platz 1b, 59065 Hamm ",
    "lat": 51.678078,
    "lon": 7.807821
  },
  {
    "name": "Hanau Hbf",
    "address": "Am Hauptbahnhof 14a, 63450 Hanau",
    "lat": 50.120953,
    "lon": 8.929
  },
  {
    "name": "Hannover Hbf",
    "address": "Ernst-August-Platz 1, 30159 Hannover",
    "lat": 52.376761,
    "lon": 9.741021
  },
  {
    "name": "Harburg Rathaus",
    "address": "Harburger Ring 20, 21079 Hamburg",
    "lat": 53.460694,
    "lon": 9.980463
  },
  {
    "name": "Hasselbrook",
    "address": "Hammer Steindamm 58, 22089 Hamburg",
    "lat": 53.564711,
    "lon": 10.056129
  },
  {
    "name": "Heide (Holst)",
    "address": "G\u00fcterstra\u00dfe 13, 25746 Heide",
    "lat": 54.193563,
    "lon": 9.101029
  },
  {
    "name": "Heidelberg Hbf",
    "address": "Willy-Brandt-Platz 5, 69115 Heidelberg",
    "lat": 49.403567,
    "lon": 8.675442
  },
  {
    "name": "Heilbronn Hbf",
    "address": "Bahnhofstr. 30, 74072 Heilbronn",
    "lat": 49.143306,
    "lon": 9.207715
  },
  {
    "name": "Hennef (Sieg)",
    "address": "Bahnhofstr. 13, 53773 Hennef (Sieg)",
    "lat": 50.773332,
    "lon": 7.284592
  },
  {
    "name": "Hennigsdorf (b Berlin)",
    "address": "Postplatz 1 , 16761 Hennigsdorf",
    "lat": 52.6382034,
    "lon": 13.2053357
  },
  {
    "name": "Herford",
    "address": "Bahnhofsplatz 3, 32052 Herford",
    "lat": 52.119609,
    "lon": 8.663643
  },
  {
    "name": "Herne",
    "address": "Konrad-Adenauer-Platz 1, 44623 Herne",
    "lat": 51.543652,
    "lon": 7.21783
  },
  {
    "name": "Herrenberg",
    "address": "Bahnhofstr. 14, 71083 Herrenberg",
    "lat": 48.593991,
    "lon": 8.862662
  },
  {
    "name": "Herzogenrath",
    "address": "Bahnhofstr. 1, 52134 Herzogenrath",
    "lat": 50.870916,
    "lon": 6.094486
  },
  {
    "name": "Hildesheim Hbf",
    "address": "Bahnhofsplatz 1, 31134 Hildesheim",
    "lat": 52.160626,
    "lon": 9.953497
  },
  {
    "name": "Hof Hbf",
    "address": "Bahnhofsplatz 8-16, 95028 Hof",
    "lat": 50.307743,
    "lon": 11.923067
  },
  {
    "name": "Hofheim (Taunus)",
    "address": "Hattersheimer Str. 6, 65719 Hofheim (Taunus)",
    "lat": 50.084471,
    "lon": 8.443842
  },
  {
    "name": "Holzkirchen",
    "address": "Bahnhofsplatz 1, 83607 Holzkirchen",
    "lat": 47.884384,
    "lon": 11.697234
  },
  {
    "name": "Homburg (Saar) Hbf",
    "address": "Bahnhofsplatz 5, 66424 Homburg (Saar)",
    "lat": 49.328082,
    "lon": 7.337035
  },
  {
    "name": "Horb",
    "address": "Bahnhof 1, 72160 Horb",
    "lat": 48.441471,
    "lon": 8.688982
  },
  {
    "name": "Horrem",
    "address": "Bahnhofstr. 9, 50169 Kerpen",
    "lat": 50.916249,
    "lon": 6.713497
  },
  {
    "name": "Husum",
    "address": "Poggenburgstr. 12, 25813 Husum",
    "lat": 54.4720826,
    "lon": 9.05595303
  },
  {
    "name": "Ingolstadt Hbf",
    "address": "Bahnhofstr. 8, 85051 Ingolstadt",
    "lat": 48.744541,
    "lon": 11.437337
  },
  {
    "name": "Ingolstadt Nord",
    "address": "Am Nordbahnhof 9, 85049 Ingolstadt",
    "lat": 48.7736902,
    "lon": 11.4322495
  },
  {
    "name": "Itzehoe",
    "address": "Bahnhofstr. 32, 25524 Itzehoe",
    "lat": 53.923873,
    "lon": 9.510287
  },
  {
    "name": "Jena Paradies",
    "address": "Knebelstra\u00dfe 1, 07745 Jena",
    "lat": 50.924856,
    "lon": 11.587461
  },
  {
    "name": "Jena West",
    "address": "Westbahnhofstr. 13, 07745 Jena",
    "lat": 50.923286,
    "lon": 11.577848
  },
  {
    "name": "Kaiserslautern Hbf",
    "address": "Bahnhofstr. 1, 67655 Kaiserslautern",
    "lat": 49.4358593,
    "lon": 7.76862681
  },
  {
    "name": "Karlsruhe Hbf",
    "address": "Bahnhofplatz 1a, 76137 Karlsruhe",
    "lat": 48.993515,
    "lon": 8.402181
  },
  {
    "name": "Karlsruhe-Durlach",
    "address": "Hauptbahnstr. 1, 76227 Karlsruhe",
    "lat": 49.002328,
    "lon": 8.462822
  },
  {
    "name": "Kassel Hbf",
    "address": "Rainer-Dierichs-Platz 1, 34117 Kassel",
    "lat": 51.31826,
    "lon": 9.489501
  },
  {
    "name": "Kassel-Wilhelmsh\u00f6he",
    "address": "Willy-Brandt-Platz 1, 34131 Kassel",
    "lat": 51.3125585,
    "lon": 9.44711566
  },
  {
    "name": "Kempten (Allg\u00e4u) Hbf",
    "address": "Bahnhofplatz 2, 87435 Kempten ",
    "lat": 47.711745,
    "lon": 10.31761
  },
  {
    "name": "Kiel Hbf",
    "address": "Sophienblatt 25-27, 24114 Kiel",
    "lat": 54.314985,
    "lon": 10.131976
  },
  {
    "name": "Koblenz Hbf",
    "address": "Bahnhofsplatz 2, 56068 Koblenz",
    "lat": 50.350929,
    "lon": 7.588345
  },
  {
    "name": "K\u00f6ln Hbf",
    "address": "Trankgasse 11, 50667 K\u00f6ln",
    "lat": 50.94303,
    "lon": 6.958729
  },
  {
    "name": "K\u00f6ln Messe/Deutz",
    "address": "Ottoplatz 7, 50679 K\u00f6ln",
    "lat": 50.940874,
    "lon": 6.975001
  },
  {
    "name": "K\u00f6ln-Ehrenfeld",
    "address": "Stammstr. 1-111, 50823 K\u00f6ln",
    "lat": 50.951533,
    "lon": 6.917276
  },
  {
    "name": "K\u00f6ln-M\u00fclheim",
    "address": "Montanusstr., 51065 K\u00f6ln-M\u00fclheim",
    "lat": 50.957986,
    "lon": 7.013295
  },
  {
    "name": "K\u00f6nigs Wusterhausen",
    "address": "Bahnhofsvorplatz 5, 15711 K\u00f6nigs Wusterhausen",
    "lat": 52.296635,
    "lon": 13.631472
  },
  {
    "name": "Konstanz",
    "address": "Bahnhofsplatz 43, 78462 Konstanz",
    "lat": 47.658754,
    "lon": 9.177312
  },
  {
    "name": "Kornwestheim Pbf",
    "address": "Bahnhofstra\u00dfe 85, 70806 Kornwestheim",
    "lat": 48.862219,
    "lon": 9.179964
  },
  {
    "name": "K\u00f6then",
    "address": "Bahnhofsplatz 8/9, 06366 K\u00f6then",
    "lat": 51.751929,
    "lon": 11.989358
  },
  {
    "name": "Krefeld Hbf",
    "address": "Am Hauptbahnhof 1, 47798 Krefeld",
    "lat": 51.325717,
    "lon": 6.569885
  },
  {
    "name": "Hannover-Messe / Laatzen",
    "address": "M\u00fcnchner Str. 2, 30880 Laatzen",
    "lat": 52.316899,
    "lon": 9.792863
  },
  {
    "name": "Landshut (Bay) Hbf",
    "address": "Bahnhofsplatz 1, 84032 Landshut ",
    "lat": 48.547492,
    "lon": 12.13593
  },
  {
    "name": "Landstuhl",
    "address": "Bahnstr. 1, 66849 Landstuhl",
    "lat": 49.416287,
    "lon": 7.565931
  },
  {
    "name": "Leer (Ostfriesl)",
    "address": "Bahnhofsring 8, 26789 Leer",
    "lat": 53.23165,
    "lon": 7.465283
  },
  {
    "name": "Lehrte",
    "address": "Bahnhofstr. 50, 31275 Lehrte",
    "lat": 52.376722,
    "lon": 9.974599
  },
  {
    "name": "Leinefelde",
    "address": "Conrad-Hentrich-Platz 1, 37327 Leinefelde",
    "lat": 51.3888361,
    "lon": 10.3287578
  },
  {
    "name": "Leipzig Hbf",
    "address": "Willy-Brandt-Platz 5, 04109 Leipzig",
    "lat": 51.3454712,
    "lon": 12.3820639
  },
  {
    "name": "Leonberg",
    "address": "Bahnhofstr. 78, 71229 Leonberg",
    "lat": 48.799646,
    "lon": 9.003853
  },
  {
    "name": "Lichtenfels",
    "address": "Am Bahnhofsplatz 3, 96215 Lichtenfels",
    "lat": 50.146452,
    "lon": 11.059472
  },
  {
    "name": "Limburg (Lahn)",
    "address": "Bahnhofsplatz 1, 65549 Limburg",
    "lat": 50.384119,
    "lon": 8.062342
  },
  {
    "name": "Lindau-Insel",
    "address": "Bahnhofplatz 1, 88131 Lindau",
    "lat": 47.544341,
    "lon": 9.680469
  },
  {
    "name": "Lindau-Reutin",
    "address": "Bregenzer Stra\u00dfe 46, 88131 Lindau-Reutin",
    "lat": 47.552384,
    "lon": 9.703292
  },
  {
    "name": "L\u00fcbeck Hbf",
    "address": "Am Bahnhof 6, 23558 L\u00fcbeck",
    "lat": 53.867547,
    "lon": 10.669821
  },
  {
    "name": "Ludwigsburg",
    "address": "Bahnhofstr.10, 71638 Ludwigsburg",
    "lat": 48.891862,
    "lon": 9.18542
  },
  {
    "name": "Ludwigshafen (Rhein) Hbf",
    "address": "Pasadenaallee 1, 67059 Ludwigshafen",
    "lat": 49.476529,
    "lon": 8.433042
  },
  {
    "name": "L\u00fcneburg",
    "address": "Bahnhofstr. 10, 21337 L\u00fcneburg",
    "lat": 53.249656,
    "lon": 10.41989
  },
  {
    "name": "Lutherstadt Wittenberg Hbf",
    "address": "Am Hauptbahnhof 1, 06886 Lutherstadt Wittenberg",
    "lat": 51.867811,
    "lon": 12.662285
  },
  {
    "name": "Magdeburg Hbf",
    "address": "Bahnhofstr. 69, 39104 Magdeburg",
    "lat": 52.1305112,
    "lon": 11.626963
  },
  {
    "name": "Mainz Hbf",
    "address": "Bahnhofplatz 1, 55116 Mainz",
    "lat": 50.001117,
    "lon": 8.25872
  },
  {
    "name": "Mainz R\u00f6misches Theater",
    "address": "Holzhofstr. 1a, 55116 Mainz",
    "lat": 49.993465,
    "lon": 8.277565
  },
  {
    "name": "Mainz-Gustavsburg",
    "address": "Dr. Hermannstr. 23, 65462 Ginsheim-Gustavsburg",
    "lat": 49.994319,
    "lon": 8.314197
  },
  {
    "name": "Mannheim Hbf",
    "address": "Willy-Brandt-Platz 17, 68161 Mannheim",
    "lat": 49.479354,
    "lon": 8.468921
  },
  {
    "name": "Neu-Edingen/Friedrichsfeld",
    "address": "Main-Neckar-Bahnstr. 78, 68229 Mannheim",
    "lat": 49.44867,
    "lon": 8.580125
  },
  {
    "name": "Marbach (Neckar)",
    "address": "Bahnhof 1, 71672 Marbach am Neckar",
    "lat": 48.9437091,
    "lon": 9.26462352
  },
  {
    "name": "Marburg (Lahn)",
    "address": "Bahnhofstr. 33, 35037 Marburg",
    "lat": 50.819272,
    "lon": 8.775014
  },
  {
    "name": "Marktredwitz",
    "address": "Bahnhofsplatz 7, 95615 Marktredwitz",
    "lat": 50.004596,
    "lon": 12.082583
  },
  {
    "name": "Memmingen",
    "address": "Bahnhofstr. 3, 87700 Memmingen",
    "lat": 47.985581,
    "lon": 10.186853
  },
  {
    "name": "Mering",
    "address": "Bahnhofstr. 4, 86415 Mering",
    "lat": 48.262698,
    "lon": 10.988291
  },
  {
    "name": "Merzig (Saar)",
    "address": "Bahnhofstr. 58, 66663 Merzig (Saar)",
    "lat": 49.436419,
    "lon": 6.634192
  },
  {
    "name": "Minden (Westf)",
    "address": "Bundesbahnhof 12, 32423 Minden",
    "lat": 52.290138,
    "lon": 8.934728
  },
  {
    "name": "M\u00f6nchengladbach Hbf",
    "address": "Europaplatz 1, 41061 M\u00f6nchengladbach",
    "lat": 51.196583,
    "lon": 6.446111
  },
  {
    "name": "M\u00fchlacker",
    "address": "Bahnhof 119, 75417 M\u00fchlacker",
    "lat": 48.953192,
    "lon": 8.846101
  },
  {
    "name": "M\u00fclheim (Ruhr) Hbf",
    "address": "Dieter aus dem Siepen Platz 3, 45468 M\u00fclheim an der Ruhr",
    "lat": 51.431342,
    "lon": 6.88651
  },
  {
    "name": "M\u00fclheim (Ruhr)-Styrum",
    "address": "Hauskampstr. 14, 45476 M\u00fclheim an der Ruhr",
    "lat": 51.449203,
    "lon": 6.852636
  },
  {
    "name": "M\u00fcnchen Donnersbergerbr\u00fccke",
    "address": "Donnersberger Br\u00fccke, 80634 M\u00fcnchen",
    "lat": 48.142623,
    "lon": 11.536537
  },
  {
    "name": "M\u00fcnchen-Hackerbr\u00fccke",
    "address": "Arnulfstr. 31, 80636 M\u00fcnchen",
    "lat": 48.141969,
    "lon": 11.548572
  },
  {
    "name": "M\u00fcnchen Hbf",
    "address": "Bayerstr. 10a, 80335 M\u00fcnchen",
    "lat": 48.140232,
    "lon": 11.558335
  },
  {
    "name": "M\u00fcnchen Karlsplatz",
    "address": "Karlsplatz, 80331 M\u00fcnchen",
    "lat": 48.139452,
    "lon": 11.565619
  },
  {
    "name": "M\u00fcnchen Marienplatz",
    "address": "Marienplatz, 80331 M\u00fcnchen",
    "lat": 48.137048,
    "lon": 11.575386
  },
  {
    "name": "M\u00fcnchen Ost",
    "address": "Orleansplatz 11, 81667 M\u00fcnchen",
    "lat": 48.12744,
    "lon": 11.604971
  },
  {
    "name": "M\u00fcnchen Rosenheimer Platz",
    "address": "Rosenheimer Platz, 81669 M\u00fcnchen",
    "lat": 48.129168,
    "lon": 11.593049
  },
  {
    "name": "M\u00fcnchen-Giesing",
    "address": "Giesinger Bahnhofplatz 1, 81539 M\u00fcnchen",
    "lat": 48.110803,
    "lon": 11.596346
  },
  {
    "name": "M\u00fcnchen-Laim Pbf",
    "address": "Wotanstr. 3, 80639 M\u00fcnchen",
    "lat": 48.144371,
    "lon": 11.503669
  },
  {
    "name": "M\u00fcnchen-Pasing",
    "address": "Pasinger Bahnhofsplatz 7-9 6-10, 81241 M\u00fcnchen",
    "lat": 48.149852,
    "lon": 11.461872
  },
  {
    "name": "M\u00fcnster (Westf) Hbf",
    "address": "Berliner Platz 25, 48143 M\u00fcnster",
    "lat": 51.956566,
    "lon": 7.635715
  },
  {
    "name": "Nauen",
    "address": "Waldemarstra\u00dfe 6, 14641 Nauen",
    "lat": 52.612696,
    "lon": 12.885559
  },
  {
    "name": "Naumburg (Saale) Hbf",
    "address": "Bahnhofstra\u00dfe 46, 06618 Naumburg ",
    "lat": 51.163071,
    "lon": 11.796984
  },
  {
    "name": "Mosbach-Neckarelz",
    "address": "Bahnhofsplatz 1, 74821 Mosbach-Neckarelz",
    "lat": 49.348484,
    "lon": 9.113093
  },
  {
    "name": "Neckargem\u00fcnd",
    "address": "Bahnhofstr. 19, 69151 Neckargem\u00fcnd",
    "lat": 49.393678,
    "lon": 8.788425
  },
  {
    "name": "Neudietendorf",
    "address": "Bahnhofstr. 8, 99192 Neudietendorf",
    "lat": 50.913898,
    "lon": 10.909685
  },
  {
    "name": "Neumarkt (Oberpf)",
    "address": "Bahnhofsplatz 1, 92318 Neumarkt i. d. Opf.",
    "lat": 49.273221,
    "lon": 11.456987
  },
  {
    "name": "Neum\u00fcnster",
    "address": "Konrad-Adenauer-Platz 2, 24534 Neum\u00fcnster",
    "lat": 54.075752,
    "lon": 9.979816
  },
  {
    "name": "Neunkirchen (Saar) Hbf",
    "address": "Am Bahnhof 1, 66538 Neunkirchen (Saar)",
    "lat": 49.353291,
    "lon": 7.176655
  },
  {
    "name": "Neuss Hbf",
    "address": "Further Str. 1, 41462 Neuss",
    "lat": 51.204351,
    "lon": 6.684527
  },
  {
    "name": "Neustadt (Weinstr) Hbf",
    "address": "Bahnhofsplatz 6, 67434 Neustadt ",
    "lat": 49.349553,
    "lon": 8.140757
  },
  {
    "name": "Neuwied",
    "address": "Augustastr. 33, 56564 Neuwied",
    "lat": 50.431466,
    "lon": 7.473132
  },
  {
    "name": "Nieb\u00fcll",
    "address": "Bahnhofstr. 1, 25899 Nieb\u00fcll",
    "lat": 54.789605,
    "lon": 8.834572
  },
  {
    "name": "Nienburg (Weser)",
    "address": "Bahnhofstr. 11, 31582 Nienburg  ",
    "lat": 52.645566,
    "lon": 9.217753
  },
  {
    "name": "Nordhausen",
    "address": "Bahnhofsplatz 6, 99734 Nordhausen",
    "lat": 51.49292,
    "lon": 10.789249
  },
  {
    "name": "Northeim (Han)",
    "address": "Bahnhofstr. 1, 37154 Northeim ",
    "lat": 51.703139,
    "lon": 9.986618
  },
  {
    "name": "N\u00fcrnberg Hbf",
    "address": "Bahnhofsplatz 9, 90443 N\u00fcrnberg",
    "lat": 49.445616,
    "lon": 11.082989
  },
  {
    "name": "N\u00fcrtingen",
    "address": "Bahnhofstr. 8, 72622 N\u00fcrtingen",
    "lat": 48.6280656,
    "lon": 9.34280187
  },
  {
    "name": "Oberesslingen",
    "address": "Ulmer Strasse 75, 73730 Esslingen am Neckar",
    "lat": 48.729876,
    "lon": 9.327267
  },
  {
    "name": "Oberhausen Hbf",
    "address": "Willy-Brandt-Platz 1, 46045 Oberhausen",
    "lat": 51.474878,
    "lon": 6.851588
  },
  {
    "name": "Oberstdorf",
    "address": "Bahnhofplatz 5, 87561 Oberstdorf",
    "lat": 47.411032,
    "lon": 10.278097
  },
  {
    "name": "Offenbach (Main) Ost",
    "address": "Untere Grenzstr. 86, 63075 Offenbach (Main)",
    "lat": 50.1027107,
    "lon": 8.78442362
  },
  {
    "name": "Offenburg",
    "address": "Hauptstr. 1, 77652 Offenburg",
    "lat": 48.476475,
    "lon": 7.946723
  },
  {
    "name": "K\u00f6ln/Bonn Flughafen",
    "address": "Waldstra\u00dfe 247, 51147 K\u00f6ln",
    "lat": 50.878901,
    "lon": 7.119302
  },
  {
    "name": "Oldenburg (Oldb) Hbf",
    "address": "Bahnhofsplatz 12d, 26122 Oldenburg (Oldb)",
    "lat": 53.144323,
    "lon": 8.222713
  },
  {
    "name": "Opladen",
    "address": "Bahnhofstr. 35, 51379 Leverkusen",
    "lat": 51.066175,
    "lon": 7.008775
  },
  {
    "name": "Oranienburg",
    "address": "Bahnhofsplatz 1, 16515 Oranienburg",
    "lat": 52.753653,
    "lon": 13.249613
  },
  {
    "name": "Osnabr\u00fcck Hbf",
    "address": "Theodor-Heuss-Platz 2, 49074 Osnabr\u00fcck",
    "lat": 52.272851,
    "lon": 8.061781
  },
  {
    "name": "Berlin Ostkreuz",
    "address": "Sonntagstr.37, 10245 Berlin",
    "lat": 52.503037,
    "lon": 13.469105
  },
  {
    "name": "Paderborn Hbf",
    "address": "Bahnhofstr. 29, 33102 Paderborn",
    "lat": 51.712979,
    "lon": 8.740505
  },
  {
    "name": "Berlin S\u00fcdkreuz",
    "address": "General-Pape-Stra\u00dfe 1, 12101 Berlin",
    "lat": 52.475047,
    "lon": 13.365319
  },
  {
    "name": "Passau Hbf",
    "address": "Bahnhofstr. 29, 94032 Passau",
    "lat": 48.573632,
    "lon": 13.450776
  },
  {
    "name": "Petershausen (Oberbay)",
    "address": "Bahnhofstr. 38, 85238 Petershausen (Oberbay)",
    "lat": 48.41345,
    "lon": 11.469881
  },
  {
    "name": "Pforzheim Hbf",
    "address": "Bahnhofplatz 1, 75175 Pforzheim",
    "lat": 48.894152,
    "lon": 8.703099
  },
  {
    "name": "Pinneberg",
    "address": "Bahnhofstr. 3, 25421 Pinneberg",
    "lat": 53.655179,
    "lon": 9.797608
  },
  {
    "name": "Plattling",
    "address": "Bahnhofplatz 6, 94447 Plattling",
    "lat": 48.779619,
    "lon": 12.86394
  },
  {
    "name": "Plauen (Vogtl) ob Bf",
    "address": "Rathenauplatz 2, 08525 Plauen ",
    "lat": 50.506163,
    "lon": 12.129419
  },
  {
    "name": "Plochingen",
    "address": "Am Bahnhof 1, 73207 Plochingen",
    "lat": 48.71308,
    "lon": 9.41081
  },
  {
    "name": "Potsdam Hbf",
    "address": "Friedrich-Engels-Str. 99, 14473 Potsdam",
    "lat": 52.391509,
    "lon": 13.0667031
  },
  {
    "name": "Potsdam Park Sanssouci",
    "address": "Geschwister-Scholl-Str, 14471 Potsdam",
    "lat": 52.394108,
    "lon": 13.014512
  },
  {
    "name": "Berlin Potsdamer Platz",
    "address": "Potsdamer Platz, 10785 Berlin",
    "lat": 52.509379,
    "lon": 13.375988
  },
  {
    "name": "Radolfzell",
    "address": "Bahnhofsplatz 2, 78315 Radolfzell ",
    "lat": 47.735873,
    "lon": 8.968984
  },
  {
    "name": "Rastatt",
    "address": "Bahnhofstr. 56, 76437 Rastatt",
    "lat": 48.860483,
    "lon": 8.215623
  },
  {
    "name": "Recklinghausen Hbf",
    "address": "Gro\u00dfe Perdekamp Str. 2, 45657 Recklinghausen",
    "lat": 51.616359,
    "lon": 7.20349
  },
  {
    "name": "Regensburg Hbf",
    "address": "Bahnhofstr. 18, 93047 Regensburg",
    "lat": 49.011672,
    "lon": 12.099617
  },
  {
    "name": "Remagen",
    "address": "Maisons-Laffitte-Platz 2, 53424 Remagen",
    "lat": 50.5770029,
    "lon": 7.23026991
  },
  {
    "name": "Rendsburg",
    "address": "Am Bahnhof 20, 24768 Rendsburg",
    "lat": 54.302262,
    "lon": 9.671134
  },
  {
    "name": "Renningen",
    "address": "Bahnhof 1, 71272 Renningen",
    "lat": 48.775121,
    "lon": 8.93235
  },
  {
    "name": "Reutlingen Hbf",
    "address": "Bahnhofstr. 3, 72764 Reutlingen",
    "lat": 48.496079,
    "lon": 9.209116
  },
  {
    "name": "Rheda-Wiedenbr\u00fcck",
    "address": "Bahnhofsplatz 18, 33378 Rheda -Wiedenbr\u00fcck",
    "lat": 51.857023,
    "lon": 8.28665
  },
  {
    "name": "Rheine",
    "address": "Am Hauptbahnhofe 2, 48431 Rheine",
    "lat": 52.276299,
    "lon": 7.434255
  },
  {
    "name": "Riesa",
    "address": "Bahnhofstr. 50, 01587 Riesa",
    "lat": 51.309654,
    "lon": 13.287734
  },
  {
    "name": "Rosenheim",
    "address": "S\u00fcdtiroler Platz 1, 83022 Rosenheim",
    "lat": 47.850018,
    "lon": 12.119202
  },
  {
    "name": "Rostock Hbf",
    "address": "Konrad-Adenauer-Platz 1, 18055 Rostock",
    "lat": 54.078246,
    "lon": 12.131079
  },
  {
    "name": "Roth",
    "address": "Bahnhofstr. 74, 91154 Roth",
    "lat": 49.241287,
    "lon": 11.082508
  },
  {
    "name": "Rottweil",
    "address": "Bahnhof 1, 78628 Rottweil",
    "lat": 48.165304,
    "lon": 8.639295
  },
  {
    "name": "R\u00fcsselsheim",
    "address": "Bahnhofsplatz 2, 65428 R\u00fcsselsheim",
    "lat": 49.991639,
    "lon": 8.413583
  },
  {
    "name": "Saalfeld (Saale)",
    "address": "Kulmbacher Str. 25, 07318 Saalfeld (Saale)",
    "lat": 50.6502734,
    "lon": 11.3745832
  },
  {
    "name": "Saarbr\u00fccken Hbf",
    "address": "Am Hauptbahnhof 6-12, 66111 Saarbr\u00fccken",
    "lat": 49.241065,
    "lon": 6.991021
  },
  {
    "name": "Saarlouis Hbf",
    "address": "Bahnhofsplatz 11, 66740 Saarlouis",
    "lat": 49.32783,
    "lon": 6.750169
  },
  {
    "name": "Schifferstadt",
    "address": "Bahnhofstr. 87, 67105 Schifferstadt",
    "lat": 49.39291,
    "lon": 8.364945
  },
  {
    "name": "Sch\u00f6nebeck (Elbe)",
    "address": "Bahnhofstr. 39, 39218 Sch\u00f6nebeck (Elbe)",
    "lat": 52.018794,
    "lon": 11.733157
  },
  {
    "name": "Schorndorf",
    "address": "Rosenstr. 2, 73614 Schorndorf",
    "lat": 48.80715,
    "lon": 9.52631
  },
  {
    "name": "Schwabach",
    "address": "Bahnhofstr. 45, 91126 Schwabach",
    "lat": 49.326195,
    "lon": 11.035351
  },
  {
    "name": "Schweinfurt Hbf",
    "address": "Hauptbahnhofstr. 11, 97424 Schweinfurt",
    "lat": 50.035313,
    "lon": 10.212919
  },
  {
    "name": "Schwelm",
    "address": "Bahnhofsplatz 2, 58332 Schwelm",
    "lat": 51.290526,
    "lon": 7.289681
  },
  {
    "name": "Schwerin Hbf",
    "address": "Grunthalplatz 4, 19053 Schwerin",
    "lat": 53.634739,
    "lon": 11.407455
  },
  {
    "name": "Siegburg/Bonn",
    "address": "Wilhelmstr. 45, 53721 Siegburg",
    "lat": 50.793915,
    "lon": 7.203026
  },
  {
    "name": "Siegen Hbf",
    "address": "Am Bahnhof 16-20, 57072 Siegen",
    "lat": 50.875939,
    "lon": 8.016508
  },
  {
    "name": "Singen (Hohentwiel)",
    "address": "Bahnhofstr. 2, 78224 Singen ",
    "lat": 47.7588801,
    "lon": 8.84126902
  },
  {
    "name": "Soest",
    "address": "Bahnhofstr. 2, 59494 Soest",
    "lat": 51.578419,
    "lon": 8.104589
  },
  {
    "name": "Solingen Hbf",
    "address": "Bahnstr. 5, 42697 Solingen-Ohligs",
    "lat": 51.160766,
    "lon": 7.004187
  },
  {
    "name": "St. Ingbert",
    "address": "Neue Bahnhofstr. 4, 66386 St. Ingbert",
    "lat": 49.274763,
    "lon": 7.110814
  },
  {
    "name": "Stendal Hbf",
    "address": "Bahnhofstr. 34, 39576 Stendal",
    "lat": 52.594723,
    "lon": 11.854412
  },
  {
    "name": "Stralsund Hbf",
    "address": "Tribseer Damm 75, 18437 Stralsund",
    "lat": 54.308626,
    "lon": 13.077321
  },
  {
    "name": "Straubing",
    "address": "Bahnhofsplatz 6, 94315 Straubing",
    "lat": 48.876978,
    "lon": 12.574094
  },
  {
    "name": "Stuttgart Hbf",
    "address": "Arnulf-Klett-Platz 2, 70173 Stuttgart",
    "lat": 48.784084,
    "lon": 9.181635
  },
  {
    "name": "Stuttgart-Bad Cannstatt",
    "address": "Bahnhofstr. 30, 70372 Stuttgart",
    "lat": 48.801377,
    "lon": 9.217531
  },
  {
    "name": "Stuttgart-Feuerbach",
    "address": "Bahnhof 1, 70469 Stuttgart-Feuerbach",
    "lat": 48.8136825,
    "lon": 9.16913332
  },
  {
    "name": "Stuttgart Feuersee",
    "address": "Feuerseeplatz 14, 70176 Stuttgart",
    "lat": 48.772768,
    "lon": 9.166273
  },
  {
    "name": "Stuttgart Schwabstra\u00dfe",
    "address": "Roteb\u00fchlstrasse, 70197 Stuttgart",
    "lat": 48.770255,
    "lon": 9.156959
  },
  {
    "name": "Stuttgart Stadtmitte",
    "address": "Theodor-Heuss-Strasse, 70174 Stuttgart",
    "lat": 48.776229,
    "lon": 9.172925
  },
  {
    "name": "Stuttgart-Untert\u00fcrkheim Pbf",
    "address": "Karl-Benz-Platz 15, 70327 Stuttgart",
    "lat": 48.779751,
    "lon": 9.250569
  },
  {
    "name": "Stuttgart-Vaihingen",
    "address": "Am Bahnhof 1, 70563 Stuttgart",
    "lat": 48.726279,
    "lon": 9.113226
  },
  {
    "name": "Stuttgart-Zuffenhausen",
    "address": "Am Bahnhof 1, 70435 Stuttgart",
    "lat": 48.8294396,
    "lon": 9.16697234
  },
  {
    "name": "Traunstein",
    "address": "Bahnhofplatz 5, 83278 Traunstein",
    "lat": 47.869727,
    "lon": 12.638801
  },
  {
    "name": "Treuchtlingen",
    "address": "Bahnhofstr. 61, 91757 Treuchtlingen",
    "lat": 48.961267,
    "lon": 10.908159
  },
  {
    "name": "Trier Hbf",
    "address": "Bahnhofsplatz 1, 54292 Trier",
    "lat": 49.756846,
    "lon": 6.652453
  },
  {
    "name": "Troisdorf",
    "address": "Poststr. 64, 53840 Troisdorf",
    "lat": 50.813922,
    "lon": 7.150892
  },
  {
    "name": "T\u00fcbingen Hbf",
    "address": "Europaplatz 17, 72072 T\u00fcbingen",
    "lat": 48.5156414,
    "lon": 9.05539513
  },
  {
    "name": "Tuttlingen",
    "address": "Bahnhof 1, 78532 Tuttlingen",
    "lat": 47.980579,
    "lon": 8.798542
  },
  {
    "name": "Tutzing",
    "address": "Bahnhofstr. 26, 82327 Tutzing",
    "lat": 47.907142,
    "lon": 11.27289
  },
  {
    "name": "Uelzen",
    "address": "Friedensreich-Hundertwasser-Platz 1, 29525 Uelzen",
    "lat": 52.969781,
    "lon": 10.553053
  },
  {
    "name": "Ulm Hbf",
    "address": "Bahnhofplatz 1, 89073 Ulm",
    "lat": 48.3993985,
    "lon": 9.98260796
  },
  {
    "name": "Unna",
    "address": "Bahnhofstra\u00dfe, 59427 Unna",
    "lat": 51.538982,
    "lon": 7.692858
  },
  {
    "name": "Verden (Aller)",
    "address": "Bahnhofstr. 14, 27283 Verden (Aller)",
    "lat": 52.920818,
    "lon": 9.237855
  },
  {
    "name": "Viersen",
    "address": "Bahnhofsplatz 1, 41747 Viersen",
    "lat": 51.254947,
    "lon": 6.403896
  },
  {
    "name": "V\u00f6lklingen",
    "address": "Rathausstr. 55, 66333 V\u00f6lklingen",
    "lat": 49.249091,
    "lon": 6.848156
  },
  {
    "name": "Waiblingen",
    "address": "Neuer Bahnhof, 71332 Waiblingen",
    "lat": 48.826124,
    "lon": 9.299882
  },
  {
    "name": "Wanne-Eickel Hbf",
    "address": "Heinz-R\u00fchmann-Platz 1, 44649 Herne",
    "lat": 51.531256,
    "lon": 7.165783
  },
  {
    "name": "Waren (M\u00fcritz)",
    "address": "Lloydstr. 3, 17192 Waren (M\u00fcritz)",
    "lat": 53.521512,
    "lon": 12.680678
  },
  {
    "name": "Warnem\u00fcnde",
    "address": "Am Bahnhof 5, 18119 Rostock",
    "lat": 54.176852,
    "lon": 12.091271
  },
  {
    "name": "Weiden (Oberpf)",
    "address": "Bahnhofstr. 28, 92637 Weiden in der Oberpfalz",
    "lat": 49.67049,
    "lon": 12.153846
  },
  {
    "name": "Weil am Rhein",
    "address": "Hauptstra\u00dfe 339, 79576 Weil  am Rhein",
    "lat": 47.5936076,
    "lon": 7.60843992
  },
  {
    "name": "Weilheim (Oberbay)",
    "address": "Bahnhofplatz 1, 82362 Weilheim ",
    "lat": 47.845363,
    "lon": 11.14286
  },
  {
    "name": "Weimar",
    "address": "Schopenhauerstr. 2, 99423 Weimar",
    "lat": 50.991487,
    "lon": 11.326458
  },
  {
    "name": "Weinheim (Bergstr) Hbf",
    "address": "Am Hauptbahnhof 1, 69469 Weinheim",
    "lat": 49.553302,
    "lon": 8.665351
  },
  {
    "name": "Wei\u00dfenfels",
    "address": "Zum Bahnhof 2, 06667 Wei\u00dfenfels",
    "lat": 51.204615,
    "lon": 11.970926
  },
  {
    "name": "Wendlingen (Neckar)",
    "address": "Bahnhofstr. 15, 73240 Wendlingen am Neckar",
    "lat": 48.672961,
    "lon": 9.373011
  },
  {
    "name": "Wesel",
    "address": "Franz-Etzel-Platz 17, 46483 Wesel",
    "lat": 51.65584,
    "lon": 6.627134
  },
  {
    "name": "Westerland (Sylt)",
    "address": "Kirchenweg 1, 25980 Sylt/ OT Westerland  ",
    "lat": 54.906839,
    "lon": 8.310925
  },
  {
    "name": "Berlin-Westkreuz",
    "address": "Am Messedamm/ Halenseestra\u00dfe 28, 14057 Berlin",
    "lat": 52.500737,
    "lon": 13.283966
  },
  {
    "name": "Wetzlar",
    "address": "Willy-Brandt-Platz 1, 35576 Wetzlar",
    "lat": 50.565631,
    "lon": 8.503819
  },
  {
    "name": "Wiesbaden Hbf",
    "address": "Bahnhofsplatz 1, 65189 Wiesbaden",
    "lat": 50.070791,
    "lon": 8.243731
  },
  {
    "name": "Wiesloch-Walldorf",
    "address": "Staatsbahnhofstr. 14, 69168 Wiesloch",
    "lat": 49.291353,
    "lon": 8.664146
  },
  {
    "name": "Winnenden",
    "address": "Bahnhofstr. 4, 71364 Winnenden",
    "lat": 48.879583,
    "lon": 9.39229
  },
  {
    "name": "Witten Hbf",
    "address": "Bergerstr. 35, 58452 Witten",
    "lat": 51.435544,
    "lon": 7.329442
  },
  {
    "name": "Wittenberge",
    "address": "Am Bahnhof 1, 19322 Wittenberge",
    "lat": 53.003115,
    "lon": 11.762871
  },
  {
    "name": "Wolfsburg Hbf",
    "address": "Willy-Brandt-Platz 3, 38440 Wolfsburg",
    "lat": 52.429498,
    "lon": 10.787784
  },
  {
    "name": "Worms Hbf",
    "address": "Bahnhofstr. 7/11, 67547 Worms",
    "lat": 49.63494,
    "lon": 8.356448
  },
  {
    "name": "Wunstorf",
    "address": "Hindenburgstr. 58, 31515 Wunstorf",
    "lat": 52.422225,
    "lon": 9.450976
  },
  {
    "name": "Wuppertal Hbf",
    "address": "D\u00f6ppersberg 37, 42103 Wuppertal",
    "lat": 51.254363,
    "lon": 7.149543
  },
  {
    "name": "Wuppertal-Oberbarmen",
    "address": "Rittershauser Br\u00fccke 15, 42277 Wuppertal",
    "lat": 51.273839,
    "lon": 7.221483
  },
  {
    "name": "Wuppertal-Vohwinkel",
    "address": "Bahnstr. 14-16, 42327 Wuppertal",
    "lat": 51.234259,
    "lon": 7.071597
  },
  {
    "name": "W\u00fcrzburg Hbf",
    "address": "Bahnhofplatz 4, 97070 W\u00fcrzburg",
    "lat": 49.801796,
    "lon": 9.93578
  },
  {
    "name": "Zwickau (Sachs) Hbf",
    "address": "Am Bahnhof 1, 08056 Zwickau ",
    "lat": 50.714668,
    "lon": 12.474716
  },
  {
    "name": "Langenhagen-Mitte",
    "address": "Stra\u00dfburger Platz 1, 30853 Langenhagen",
    "lat": 52.440279,
    "lon": 9.725427
  },
  {
    "name": "Ludwigshafen (Rhein) Mitte",
    "address": "Yorkstr.2 , 67061 Ludwigshafen",
    "lat": 49.479005,
    "lon": 8.452152
  },
  {
    "name": "Berlin-Lichterfelde Ost",
    "address": "Lankwitzer Str.26, 12209 Berlin",
    "lat": 52.429451,
    "lon": 13.328556
  },
  {
    "name": "Olympiastadion",
    "address": "Flatowallee/Trakehner Allee, 14053 Berlin",
    "lat": 52.511166,
    "lon": 13.242389
  },
  {
    "name": "Leipzig Messe",
    "address": "Merkurpromenade, 04356 Leipzig",
    "lat": 51.396145,
    "lon": 12.389278
  },
  {
    "name": "Frankfurt am Main Flughafen Fernbahnhof",
    "address": "Hugo-Eckener-Ring 1, 60549 Frankfurt (Main)",
    "lat": 50.053167,
    "lon": 8.570185
  },
  {
    "name": "M\u00fcnchen-Hirschgarten",
    "address": "Friedenheimer Br\u00fccke, 80639 M\u00fcnchen",
    "lat": 48.14354,
    "lon": 11.519245
  },
  {
    "name": "Flughafen BER",
    "address": "Melli-Beese-Ring , 12529 Sch\u00f6nefeld",
    "lat": 52.3648038,
    "lon": 13.5119498
  }
]
